{"searchParameters":{"q":"restaurante em São Paulo","type":"places","num":10,"page":1,"engine":"google"},"places":[{"position":1,"title":"Praça São Lourenço","address":"R. Casa do Ator, 608 - Itaim Bibi, São Paulo - SP, 04546-002, Brazil","latitude":-23.5984485,"longitude":-46.6790978,"rating":4.7,"ratingCount":6800,"priceLevel":"$$$","category":"Restaurant","phoneNumber":"+55 11 3053-9300","website":"http://www.pracasaolourenco.com.br/","cid":"14894439600956237751"},{"position":2,"title":"Le Bife","address":"R. Pedroso Alvarenga, 1088 - Unid. 13 - Itaim Bibi, São Paulo - SP, 04531-004, Brazil","latitude":-23.5823032,"longitude":-46.6809246,"rating":4.6,"ratingCount":5300,"priceLevel":"$$$","category":"Restaurant","phoneNumber":"+55 11 4324-0783","website":"http://www.lebife.com.br/","cid":"5765884767484842176"},{"position":3,"title":"A Figueira Rubaiyat","address":"Rua Haddock Lobo, 1738 - Jardins, São Paulo - SP, 01414-002, Brazil","latitude":-23.5653497,"longitude":-46.669689399999996,"rating":4.6,"ratingCount":10000,"priceLevel":"R$200+","category":"Meat dish restaurant","phoneNumber":"+55 11 3087-1399","website":"http://www.gruporubaiyat.com/","cid":"14705861141891347893"},{"position":4,"title":"Coco Bambu","address":"Shopping Sp Market - Av. das Nações Unidas, 22540 - Vila Almeida, São Paulo - SP, 04795-000, Brazil","latitude":-23.678716899999998,"longitude":-46.698499600000005,"rating":4.8,"ratingCount":24000,"priceLevel":"$$$","category":"Seafood restaurant","phoneNumber":"+55 11 5548-4712","website":"http://cocobambu.com/","cid":"14385608616675685868"},{"position":5,"title":"Modern Mamma Osteria","address":"R. Manuel Guedes, 160 - Itaim Bibi, São Paulo - SP, 04536-070, Brazil","latitude":-23.58188,"longitude":-46.6798563,"rating":4.7,"ratingCount":6300,"priceLevel":"$$$","category":"Italian restaurant","website":"http://momaosteria.com.br/","cid":"7735838813422412405"},{"position":6,"title":"Terraço Jardins","address":"Alameda Santos, 2233 - Jardim Paulista, São Paulo - SP, 01419-002, Brazil","latitude":-23.5588913,"longitude":-46.662347999999994,"rating":4.7,"ratingCount":812,"priceLevel":"$$$","category":"Restaurant","phoneNumber":"+55 11 97607-6586","website":"https://www.restauranteterracojardins.com.br/","cid":"5788500909896045190"},{"position":7,"title":"Restaurante Sapporo","address":"Praça Nossa Sra. Aparecida, 114 - Moema, São Paulo - SP, 04075-010, Brazil","latitude":-23.604053699999998,"longitude":-46.6612221,"rating":4.8,"ratingCount":5400,"priceLevel":"R$180+","category":"Restaurant","phoneNumber":"+55 11 5054-5140","website":"http://www.restaurantesapporo.com.br/","cid":"9610980628731849539"},{"position":8,"title":"Casarìa SP","address":"Alameda Franca, 1243, Rua Haddock Lobo, 1077 - Jardim Paulista, São Paulo - SP, 01422-001, Brazil","latitude":-23.5610659,"longitude":-46.664810599999996,"rating":4.5,"ratingCount":3200,"priceLevel":"$$$","category":"Restaurant","phoneNumber":"+55 11 3068-0778","cid":"14723047235387916302"},{"position":9,"title":"Fogo de Chão Moema","address":"Av. Moreira Guimarães, 964 - Indianópolis, São Paulo - SP, 04074-020, Brazil","latitude":-23.6141298,"longitude":-46.659169399999996,"rating":4.8,"ratingCount":31000,"priceLevel":"R$200+","category":"Barbecue restaurant","phoneNumber":"+55 11 5056-1795","website":"https://fogodechao.com.br/location/moema/","cid":"17516557240733739950"},{"position":10,"title":"Coco Bambu","address":"R. Azevedo Soares, 2150 - Jardim Analia Franco, São Paulo - SP, 03322-002, Brazil","latitude":-23.547009799999998,"longitude":-46.556006800000006,"rating":4.7,"ratingCount":36000,"priceLevel":"$$$","category":"Seafood restaurant","phoneNumber":"+55 11 4304-6221","website":"http://cocobambu.com/","cid":"393174873087201916"}],"credits":1}